[
  {
    "start_id": "KELB",
    "end_id": "LAMB",
    "id": "KELB-LAMB",
    "route": [
      {
        "lat": "-41.28536500000000",
        "lon": "174.7676500000000",
        "stop": "KELB"
      },
      {
        "lat": "-41.28505400000000",
        "lon": "174.7695620000000",
        "stop": "SALA"
      },
      {
        "lat": "-41.28479300000000",
        "lon": "174.7712850000000",
        "stop": "TALA"
      },
      {
        "lat": "-41.28451400000000",
        "lon": "174.7730770000000",
        "stop": "CLIF"
      },
      {
        "lat": "-41.28421200000000",
        "lon": "174.7750910000000",
        "stop": "LAMB"
      }
    ],
    "stops": [
      "KELB",
      "SALA",
      "TALA",
      "CLIF",
      "LAMB"
    ]
  },
  {
    "start_id": "LAMB",
    "end_id": "KELB",
    "id": "LAMB-KELB",
    "route": [
      {
        "lat": "-41.28421200000000",
        "lon": "174.7750910000000",
        "stop": "LAMB"
      },
      {
        "lat": "-41.28451400000000",
        "lon": "174.7730770000000",
        "stop": "CLIF"
      },
      {
        "lat": "-41.28479300000000",
        "lon": "174.7712850000000",
        "stop": "TALA"
      },
      {
        "lat": "-41.28505400000000",
        "lon": "174.7695620000000",
        "stop": "SALA"
      },
      {
        "lat": "-41.28536500000000",
        "lon": "174.7676500000000",
        "stop": "KELB"
      }
    ],
    "stops": [
      "LAMB",
      "CLIF",
      "TALA",
      "SALA",
      "KELB"
    ]
  }
]